name,address,website,phone_number,reviews_count,reviews_average,latitude,longitude,one_star_reviews
USA Injury Lawyers·Lien consulté,"3233 W Charleston Blvd Suite 203, Las Vegas, NV 89102, États-Unis",usainjurylawyers.com,+1 702-872-3000,0,5.0,36.1587263,170.9863756,0
USA Immigration Lawyer·Lien consulté,"21777 Ventura Blvd #261, Woodland Hills, CA 91364, États-Unis",usaimmigrationlawyer.com,+1 818-532-0137,0,4.9,34.1692432,167.569812,0
Common Law - United States of America Republic·Lien consulté,,forms.gle,,0,5.0,46.423669,156.2291664,0
USA Legal Network·Lien consulté,"800 W 1st St #200b, Los Angeles, CA 90012, États-Unis",usalegalinc.com,+1 800-253-0123,0,4.6,34.0561532,167.9200581,0
SV Attorney Usa·Lien consulté,"Av. Homero 538-Piso 9, Polanco, Polanco IV Secc, Miguel Hidalgo, 11560 Ciudad de México, CDMX, Mexique",svattorneyusa.com,+52 55 7500 3162,0,5.0,19.4353665,-173.0184196,0
U.S. Law Center·Lien consulté,"4230 Green River Rd, Corona, CA 92880, États-Unis",uslawcenteronline.com,+1 951-371-0027,0,4.2,19.4353665,-173.0184196,0
U.S. Law Group·Lien consulté,"427 N Canon Dr # 206, Beverly Hills, CA 90210, États-Unis",uslawgroupinc.com,+1 877-299-6799,0,4.0,19.4353665,-173.0184196,0
US Attorney's Office·Lien consulté,"40 N Central Ave #1800, Phoenix, AZ 85004, États-Unis",justice.gov,+1 602-514-7500,0,4.4,19.4353665,-173.0184196,0
"US Legal Group, APC·Lien consulté","625 N Main St 1st Floor, Orange, CA 92868, États-Unis",,+1 714-921-5226,0,4.0,19.4353665,-173.0184196,0
USA Immigration Attorneys·Lien consulté,"1820 E Garry Ave #215, Santa Ana, CA 92705, États-Unis",,+1 714-442-6666,0,0.0,19.4353665,-173.0184196,0
USA Trademark Lawyer·Lien consulté,"100 S 5th St UNIT 1900, Minneapolis, MN 55402, États-Unis",usatrademarklawyer.com,+1 612-437-4404,0,0.0,19.4353665,-173.0184196,0
US Law Enforcement & Invstgtn·Lien consulté,"Craig, Alaska 99921, États-Unis",,+1 907-826-3231,0,0.0,55.4753208,153.0188053,0
USA People·Lien consulté,"11755 Imperial Hwy. # 200, Norwalk, CA 90650, États-Unis",usapeoplenwk.com,+1 562-863-1991,0,4.4,33.9173779,168.089735,0
US IP Attorneys PC·Lien consulté,"325 W Washington St #2380, San Diego, CA 92103, États-Unis",usipattorneys.com,+1 858-488-2545,0,5.0,32.7496857,169.005006,0
USA Immigration & Visa Law Center·Lien consulté,"5857 Pine Ave Suite B, Chino Hills, CA 91709, États-Unis",easyimmigrationus.com,+1 213-385-8983,0,0.0,33.946632,168.4955276,0
Best Attorneys of America·Lien consulté,"7455 Arroyo Crossing Pkwy UNIT 220, Las Vegas, NV 89113, États-Unis",bestattorneysofamerica.com,+1 702-769-2026,0,0.0,36.0627229,170.9182223,0
U.S. Law Center·Lien consulté,"208 Carson St Suite 203, Carson, CA 90745, États-Unis",uslawcenteronline.com,+1 310-831-1815,0,4.3,33.8314161,167.8974623,0
MyRights Immigration Law Firm·Lien consulté,"75 S Federal Blvd, Denver, CO 80219, États-Unis",myrightsimmigration.com,+1 303-495-5121,0,4.8,39.7151892,-178.8536444,0
U.S. Attorney's Office·Lien consulté,"601 Northwest Loop 410 #600, San Antonio, TX 78216, États-Unis",justice.gov,+1 210-384-7100,0,2.3,39.7151892,-178.8536444,0
Immigration Lawyers of America·Lien consulté,"1 Kaiser Plaza Suite 2350, Oakland, CA 94612, États-Unis",immigrationlawyersamerica.com,+1 510-270-2620,0,5.0,39.7151892,-178.8536444,0
"Lawrence Kahn Law Group, P.S.·Lien consulté","14240 Interurban Ave S Suite B132, Tukwila, WA 98168, États-Unis",lklegal.com,+1 425-453-5679,0,5.0,39.7151892,-178.8536444,0
American Top Attorneys·Lien consulté,,americantopattorneys.com,,0,5.0,39.7151892,-178.8536444,0
Los Representantes·Lien consulté,"10150 Centennial Pkwy Ste 150, Sandy, UT 84070, États-Unis",therepresentatives.com,+1 801-601-1500,0,4.7,39.7151892,-178.8536444,0
Kraus Law Corporation·Lien consulté,"2645 First Ave., San Diego, CA 92103, États-Unis",,+1 619-230-1761,0,4.9,39.7151892,-178.8536444,0
